[
  {
    "name": "Padel Haus Williamsburg",
    "address": "307 Kent Ave",
    "city": "Brooklyn",
    "state": "New York",
    "state_abbr": "NY",
    "zip_code": "11249",
    "latitude": 40.7138,
    "longitude": -73.9614,
    "phone": "(917) 970-0036",
    "website": "https://www.padel.haus/locations/williamsburg",
    "total_courts": 7,
    "indoor_court_count": 4,
    "outdoor_court_count": 3,
    "surface_type": "artificial turf",
    "description": "NYC's first premium indoor padel club in Williamsburg, Brooklyn, featuring spa-like locker rooms, social lounges, and a pro shop.",
    "indoor_courts": true,
    "outdoor_courts": true,
    "panoramic_glass": true,
    "led_lighting": true,
    "pro_shop": true,
    "equipment_rental": true,
    "coaching": true,
    "tournaments": true,
    "leagues": true,
    "open_play": true,
    "locker_rooms": true,
    "parking": false,
    "food_beverage": true,
    "wheelchair_accessible": false,
    "kids_programs": false,
    "price_per_hour_cents": 5000,
    "price_peak_cents": 8000,
    "membership_available": true,
    "is_featured": true
  },
  {
    "name": "Padel Haus Dumbo",
    "address": "257 Water St",
    "city": "Brooklyn",
    "state": "New York",
    "state_abbr": "NY",
    "zip_code": "11201",
    "latitude": 40.7033,
    "longitude": -73.9868,
    "phone": "(917) 970-0036",
    "website": "https://www.padel.haus/dumbo",
    "total_courts": 4,
    "indoor_court_count": 4,
    "outdoor_court_count": 0,
    "surface_type": "artificial turf",
    "description": "Premium indoor padel club in Brooklyn's DUMBO neighborhood with four top-tier courts, social lounges, and premium fitness equipment.",
    "indoor_courts": true,
    "outdoor_courts": false,
    "panoramic_glass": true,
    "led_lighting": true,
    "pro_shop": true,
    "equipment_rental": true,
    "coaching": true,
    "tournaments": true,
    "leagues": true,
    "open_play": true,
    "locker_rooms": true,
    "parking": false,
    "food_beverage": true,
    "wheelchair_accessible": false,
    "kids_programs": false,
    "price_per_hour_cents": 5000,
    "price_peak_cents": 8000,
    "membership_available": true,
    "is_featured": false
  },
  {
    "name": "Padel Haus Greenpoint",
    "address": "12 Berry St",
    "city": "Brooklyn",
    "state": "New York",
    "state_abbr": "NY",
    "zip_code": "11249",
    "latitude": 40.7227,
    "longitude": -73.9579,
    "phone": "(917) 970-0036",
    "website": "https://www.padel.haus/greenpoint",
    "total_courts": 5,
    "indoor_court_count": 5,
    "outdoor_court_count": 0,
    "surface_type": "artificial turf",
    "description": "Padel Haus's largest NYC location at 20,000 sq ft near McCarren Park, with five indoor courts and 28-foot ceilings.",
    "indoor_courts": true,
    "outdoor_courts": false,
    "panoramic_glass": true,
    "led_lighting": true,
    "pro_shop": true,
    "equipment_rental": true,
    "coaching": true,
    "tournaments": true,
    "leagues": true,
    "open_play": true,
    "locker_rooms": true,
    "parking": false,
    "food_beverage": true,
    "wheelchair_accessible": false,
    "kids_programs": false,
    "price_per_hour_cents": 5000,
    "price_peak_cents": 8000,
    "membership_available": true,
    "is_featured": false
  },
  {
    "name": "Padel Haus Nashville",
    "address": "2807 Grandview Ave",
    "city": "Nashville",
    "state": "Tennessee",
    "state_abbr": "TN",
    "zip_code": "37211",
    "latitude": 36.1190,
    "longitude": -86.7690,
    "phone": "(615) 813-2300",
    "website": "https://www.padel.haus/nashville",
    "total_courts": 8,
    "indoor_court_count": 8,
    "outdoor_court_count": 0,
    "surface_type": "artificial turf",
    "description": "The largest premium padel club in the U.S. with eight indoor courts, Gibson Lounge, Aescape massage table, and Juice Haus in Music City.",
    "indoor_courts": true,
    "outdoor_courts": false,
    "panoramic_glass": true,
    "led_lighting": true,
    "pro_shop": true,
    "equipment_rental": true,
    "coaching": true,
    "tournaments": true,
    "leagues": true,
    "open_play": true,
    "locker_rooms": true,
    "parking": true,
    "food_beverage": true,
    "wheelchair_accessible": false,
    "kids_programs": false,
    "price_per_hour_cents": 5000,
    "price_peak_cents": 8000,
    "membership_available": true,
    "is_featured": true
  },
  {
    "name": "Padel Haus Atlanta",
    "address": "950 W Marietta St NW, Suite A125",
    "city": "Atlanta",
    "state": "Georgia",
    "state_abbr": "GA",
    "zip_code": "30318",
    "latitude": 33.7729,
    "longitude": -84.4124,
    "phone": "(678) 919-2312",
    "website": "https://www.padel.haus/atlanta",
    "total_courts": 6,
    "indoor_court_count": 6,
    "outdoor_court_count": 0,
    "surface_type": "artificial turf",
    "description": "Atlanta's first indoor padel club at Westside Paper, featuring six courts including a center court for competition, with 40-foot ceilings.",
    "indoor_courts": true,
    "outdoor_courts": false,
    "panoramic_glass": true,
    "led_lighting": true,
    "pro_shop": true,
    "equipment_rental": true,
    "coaching": true,
    "tournaments": true,
    "leagues": true,
    "open_play": true,
    "locker_rooms": true,
    "parking": true,
    "food_beverage": true,
    "wheelchair_accessible": false,
    "kids_programs": false,
    "price_per_hour_cents": 5000,
    "price_peak_cents": 8000,
    "membership_available": true,
    "is_featured": true
  },
  {
    "name": "Padel Haus Denver",
    "address": "2501 Welton St",
    "city": "Denver",
    "state": "Colorado",
    "state_abbr": "CO",
    "zip_code": "80205",
    "latitude": 39.7556,
    "longitude": -104.9786,
    "phone": null,
    "website": "https://www.padel.haus/denver",
    "total_courts": 5,
    "indoor_court_count": 5,
    "outdoor_court_count": 0,
    "surface_type": "artificial turf",
    "description": "Padel Haus's first West Coast expansion in Denver's RiNo neighborhood with five indoor courts and 25-foot ceilings near the light rail.",
    "indoor_courts": true,
    "outdoor_courts": false,
    "panoramic_glass": true,
    "led_lighting": true,
    "pro_shop": true,
    "equipment_rental": true,
    "coaching": true,
    "tournaments": true,
    "leagues": true,
    "open_play": true,
    "locker_rooms": true,
    "parking": false,
    "food_beverage": true,
    "wheelchair_accessible": false,
    "kids_programs": false,
    "price_per_hour_cents": 5000,
    "price_peak_cents": 8000,
    "membership_available": true,
    "is_featured": false
  },
  {
    "name": "Padel& Greenpoint",
    "address": "73 West St",
    "city": "Brooklyn",
    "state": "New York",
    "state_abbr": "NY",
    "zip_code": "11222",
    "latitude": 40.7282,
    "longitude": -73.9586,
    "phone": "(929) 255-5471",
    "website": "https://www.padeland.us/greenpoint",
    "total_courts": 6,
    "indoor_court_count": 6,
    "outdoor_court_count": 0,
    "surface_type": "artificial turf",
    "description": "Premium padel club in Greenpoint with 4 doubles and 2 singles courts under a 36-foot soundproofed ceiling, plus a pro shop and lounge.",
    "indoor_courts": true,
    "outdoor_courts": false,
    "panoramic_glass": true,
    "led_lighting": true,
    "pro_shop": true,
    "equipment_rental": true,
    "coaching": true,
    "tournaments": true,
    "leagues": true,
    "open_play": true,
    "locker_rooms": true,
    "parking": false,
    "food_beverage": false,
    "wheelchair_accessible": false,
    "kids_programs": false,
    "price_per_hour_cents": 5000,
    "price_peak_cents": 8000,
    "membership_available": true,
    "is_featured": false
  },
  {
    "name": "Reserve Padel SoLe Mia",
    "address": "2251 NE 146th St",
    "city": "North Miami",
    "state": "Florida",
    "state_abbr": "FL",
    "zip_code": "33181",
    "latitude": 25.9092,
    "longitude": -80.1652,
    "phone": "(786) 562-6189",
    "website": "https://www.reservepadel.com/sole-mia",
    "total_courts": 10,
    "indoor_court_count": 4,
    "outdoor_court_count": 6,
    "surface_type": "artificial turf",
    "description": "Reserve Padel's first permanent 100,000 sq ft club with ten professional courts, a wellness center, gym, and Pura Vida cafe at SoLe Mia.",
    "indoor_courts": true,
    "outdoor_courts": true,
    "panoramic_glass": true,
    "led_lighting": true,
    "pro_shop": true,
    "equipment_rental": true,
    "coaching": true,
    "tournaments": true,
    "leagues": true,
    "open_play": true,
    "locker_rooms": true,
    "parking": true,
    "food_beverage": true,
    "wheelchair_accessible": true,
    "kids_programs": true,
    "price_per_hour_cents": 6000,
    "price_peak_cents": 9000,
    "membership_available": true,
    "is_featured": true
  },
  {
    "name": "Reserve Padel Miami Seaplane",
    "address": "1000 MacArthur Causeway",
    "city": "Miami",
    "state": "Florida",
    "state_abbr": "FL",
    "zip_code": "33132",
    "latitude": 25.7846,
    "longitude": -80.1720,
    "phone": "(786) 279-0722",
    "website": "https://www.reservepadel.com/miami-seaplane",
    "total_courts": 6,
    "indoor_court_count": 0,
    "outdoor_court_count": 6,
    "surface_type": "artificial turf",
    "description": "Waterfront padel club at the historic Miami Seaplane Base with six glass-enclosed courts, sunset deck, and Pura Vida cafe on Watson Island.",
    "indoor_courts": false,
    "outdoor_courts": true,
    "panoramic_glass": true,
    "led_lighting": true,
    "pro_shop": true,
    "equipment_rental": true,
    "coaching": true,
    "tournaments": true,
    "leagues": true,
    "open_play": true,
    "locker_rooms": true,
    "parking": true,
    "food_beverage": true,
    "wheelchair_accessible": true,
    "kids_programs": false,
    "price_per_hour_cents": 6000,
    "price_peak_cents": 9000,
    "membership_available": true,
    "is_featured": true
  },
  {
    "name": "Wynwood Padel Club",
    "address": "1932 NW Miami Ct",
    "city": "Miami",
    "state": "Florida",
    "state_abbr": "FL",
    "zip_code": "33136",
    "latitude": 25.7963,
    "longitude": -80.1972,
    "phone": "(786) 534-2926",
    "website": "https://www.wynwoodpadelmiami.com",
    "total_courts": 8,
    "indoor_court_count": 0,
    "outdoor_court_count": 8,
    "surface_type": "artificial turf",
    "description": "Miami's vibrant padel hub in Wynwood with 8 open-air courts, a wellness studio, cafeteria, and full equipment rental in the arts district.",
    "indoor_courts": false,
    "outdoor_courts": true,
    "panoramic_glass": true,
    "led_lighting": true,
    "pro_shop": true,
    "equipment_rental": true,
    "coaching": true,
    "tournaments": true,
    "leagues": true,
    "open_play": true,
    "locker_rooms": true,
    "parking": true,
    "food_beverage": true,
    "wheelchair_accessible": true,
    "kids_programs": false,
    "price_per_hour_cents": 5500,
    "price_peak_cents": 8000,
    "membership_available": true,
    "is_featured": true
  },
  {
    "name": "Padel X Miami",
    "address": "141 NE 13th Ter",
    "city": "Miami",
    "state": "Florida",
    "state_abbr": "FL",
    "zip_code": "33132",
    "latitude": 25.7897,
    "longitude": -80.1885,
    "phone": null,
    "website": "https://padelx.us",
    "total_courts": 10,
    "indoor_court_count": 0,
    "outdoor_court_count": 10,
    "surface_type": "artificial turf",
    "description": "Downtown Miami's premier 10-court club near the Adrienne Arsht Center featuring Mejorset Grandslam courts with FIP-regulation premium courts and video technology.",
    "indoor_courts": false,
    "outdoor_courts": true,
    "panoramic_glass": true,
    "led_lighting": true,
    "pro_shop": true,
    "equipment_rental": true,
    "coaching": true,
    "tournaments": true,
    "leagues": true,
    "open_play": true,
    "locker_rooms": true,
    "parking": true,
    "food_beverage": false,
    "wheelchair_accessible": true,
    "kids_programs": false,
    "price_per_hour_cents": 5000,
    "price_peak_cents": 7500,
    "membership_available": true,
    "is_featured": false
  },
  {
    "name": "Ultra Padel Aventura",
    "address": "3455 NE 207th St, Building 2",
    "city": "Aventura",
    "state": "Florida",
    "state_abbr": "FL",
    "zip_code": "33180",
    "latitude": 25.9684,
    "longitude": -80.1327,
    "phone": "(305) 384-1053",
    "website": "https://ultrapadelclub.com/ultra-padel-aventura",
    "total_courts": 11,
    "indoor_court_count": 0,
    "outdoor_court_count": 11,
    "surface_type": "artificial turf",
    "description": "Ultra Padel's Aventura location with 8 outdoor courts, 2 singles courts, and a stadium court, plus a snack bar and equipment rental.",
    "indoor_courts": false,
    "outdoor_courts": true,
    "panoramic_glass": true,
    "led_lighting": true,
    "pro_shop": false,
    "equipment_rental": true,
    "coaching": true,
    "tournaments": true,
    "leagues": true,
    "open_play": true,
    "locker_rooms": false,
    "parking": true,
    "food_beverage": true,
    "wheelchair_accessible": true,
    "kids_programs": false,
    "price_per_hour_cents": 5000,
    "price_peak_cents": 7000,
    "membership_available": true,
    "is_featured": false
  },
  {
    "name": "Urban Padel Doral",
    "address": "11601 NW 107th St",
    "city": "Doral",
    "state": "Florida",
    "state_abbr": "FL",
    "zip_code": "33178",
    "latitude": 25.8111,
    "longitude": -80.3822,
    "phone": "(786) 550-0070",
    "website": "https://urbanpadel.us",
    "total_courts": 12,
    "indoor_court_count": 12,
    "outdoor_court_count": 0,
    "surface_type": "artificial turf",
    "description": "The largest indoor padel club in the U.S. with 12 Adidas-branded courts across 65,820 sq ft of climate-controlled space in Doral.",
    "indoor_courts": true,
    "outdoor_courts": false,
    "panoramic_glass": true,
    "led_lighting": true,
    "pro_shop": false,
    "equipment_rental": true,
    "coaching": true,
    "tournaments": true,
    "leagues": true,
    "open_play": true,
    "locker_rooms": true,
    "parking": true,
    "food_beverage": false,
    "wheelchair_accessible": true,
    "kids_programs": false,
    "price_per_hour_cents": 5000,
    "price_peak_cents": 7500,
    "membership_available": true,
    "is_featured": true
  },
  {
    "name": "Champions Padel Club",
    "address": "1360 NW 88th Ave",
    "city": "Doral",
    "state": "Florida",
    "state_abbr": "FL",
    "zip_code": "33172",
    "latitude": 25.8015,
    "longitude": -80.3550,
    "phone": "(786) 909-8599",
    "website": "https://www.championspadelclub.com",
    "total_courts": 5,
    "indoor_court_count": 0,
    "outdoor_court_count": 5,
    "surface_type": "artificial turf",
    "description": "Community-focused padel club in Doral with five outdoor courts, experienced coaching staff, and popular Americano tournament format events.",
    "indoor_courts": false,
    "outdoor_courts": true,
    "panoramic_glass": true,
    "led_lighting": true,
    "pro_shop": false,
    "equipment_rental": true,
    "coaching": true,
    "tournaments": true,
    "leagues": true,
    "open_play": true,
    "locker_rooms": false,
    "parking": true,
    "food_beverage": false,
    "wheelchair_accessible": false,
    "kids_programs": false,
    "price_per_hour_cents": 3500,
    "price_peak_cents": 4500,
    "membership_available": true,
    "is_featured": false
  },
  {
    "name": "Casas Padel Club Aventura",
    "address": "19503 Biscayne Blvd",
    "city": "Aventura",
    "state": "Florida",
    "state_abbr": "FL",
    "zip_code": "33180",
    "latitude": 25.9593,
    "longitude": -80.1430,
    "phone": "(786) 342-9138",
    "website": "https://www.casaspadelclub.com",
    "total_courts": 4,
    "indoor_court_count": 0,
    "outdoor_court_count": 4,
    "surface_type": "artificial turf",
    "description": "Outdoor padel club at Aventura Mall featuring DIXSON courts, certified coaching, and a retail store for padel equipment.",
    "indoor_courts": false,
    "outdoor_courts": true,
    "panoramic_glass": true,
    "led_lighting": false,
    "pro_shop": true,
    "equipment_rental": true,
    "coaching": true,
    "tournaments": true,
    "leagues": false,
    "open_play": true,
    "locker_rooms": false,
    "parking": true,
    "food_beverage": false,
    "wheelchair_accessible": true,
    "kids_programs": false,
    "price_per_hour_cents": 4000,
    "price_peak_cents": 6000,
    "membership_available": false,
    "is_featured": false
  },
  {
    "name": "Legio GP World",
    "address": "9045 Vista del Lago",
    "city": "Boca Raton",
    "state": "Florida",
    "state_abbr": "FL",
    "zip_code": "33428",
    "latitude": 26.3447,
    "longitude": -80.1889,
    "phone": "(754) 367-2893",
    "website": "https://www.legiogpworld.com",
    "total_courts": 10,
    "indoor_court_count": 4,
    "outdoor_court_count": 6,
    "surface_type": "artificial turf",
    "description": "Premium padel experience in Boca Raton with 10 professional courts, VIP lounge, certified instructors, wellness center, and swimming pool.",
    "indoor_courts": true,
    "outdoor_courts": true,
    "panoramic_glass": true,
    "led_lighting": true,
    "pro_shop": false,
    "equipment_rental": true,
    "coaching": true,
    "tournaments": true,
    "leagues": true,
    "open_play": true,
    "locker_rooms": true,
    "parking": true,
    "food_beverage": true,
    "wheelchair_accessible": true,
    "kids_programs": false,
    "price_per_hour_cents": 5000,
    "price_peak_cents": 7500,
    "membership_available": true,
    "is_featured": false
  },
  {
    "name": "10by20 Padel Fort Lauderdale",
    "address": "5300 Powerline Rd",
    "city": "Fort Lauderdale",
    "state": "Florida",
    "state_abbr": "FL",
    "zip_code": "33309",
    "latitude": 26.1786,
    "longitude": -80.1559,
    "phone": null,
    "website": "https://10by20.com",
    "total_courts": 10,
    "indoor_court_count": 4,
    "outdoor_court_count": 6,
    "surface_type": "artificial turf",
    "description": "Fort Lauderdale padel club with 10 courts, a wellness center with cold plunge and sauna, swimming pool, and Pura Vida cafe near I-95.",
    "indoor_courts": true,
    "outdoor_courts": true,
    "panoramic_glass": true,
    "led_lighting": true,
    "pro_shop": false,
    "equipment_rental": true,
    "coaching": true,
    "tournaments": true,
    "leagues": true,
    "open_play": true,
    "locker_rooms": true,
    "parking": true,
    "food_beverage": true,
    "wheelchair_accessible": true,
    "kids_programs": false,
    "price_per_hour_cents": 5000,
    "price_peak_cents": 7000,
    "membership_available": true,
    "is_featured": false
  },
  {
    "name": "The Replay Club",
    "address": "6600 High Ridge Rd",
    "city": "Boynton Beach",
    "state": "Florida",
    "state_abbr": "FL",
    "zip_code": "33426",
    "latitude": 26.5174,
    "longitude": -80.0886,
    "phone": "(561) 484-7287",
    "website": "https://replayclub.com",
    "total_courts": 10,
    "indoor_court_count": 10,
    "outdoor_court_count": 0,
    "surface_type": "artificial turf",
    "description": "Luxury indoor padel and wellness club in Boynton Beach with 10 climate-controlled courts, sauna, steam room, cold plunges, and a cafe.",
    "indoor_courts": true,
    "outdoor_courts": false,
    "panoramic_glass": true,
    "led_lighting": true,
    "pro_shop": false,
    "equipment_rental": true,
    "coaching": true,
    "tournaments": true,
    "leagues": true,
    "open_play": true,
    "locker_rooms": true,
    "parking": true,
    "food_beverage": true,
    "wheelchair_accessible": true,
    "kids_programs": false,
    "price_per_hour_cents": 5000,
    "price_peak_cents": 7500,
    "membership_available": true,
    "is_featured": false
  },
  {
    "name": "USTA National Campus",
    "address": "10000 USTA Blvd",
    "city": "Orlando",
    "state": "Florida",
    "state_abbr": "FL",
    "zip_code": "32827",
    "latitude": 28.3789,
    "longitude": -81.2850,
    "phone": "(407) 675-2500",
    "website": "https://www.ustanationalcampus.com/en/home/play/padel.html",
    "total_courts": 4,
    "indoor_court_count": 0,
    "outdoor_court_count": 4,
    "surface_type": "artificial turf",
    "description": "The USTA's 64-acre national campus in Lake Nona with four padel courts alongside world-class tennis facilities and programming.",
    "indoor_courts": false,
    "outdoor_courts": true,
    "panoramic_glass": true,
    "led_lighting": true,
    "pro_shop": true,
    "equipment_rental": true,
    "coaching": true,
    "tournaments": true,
    "leagues": false,
    "open_play": true,
    "locker_rooms": true,
    "parking": true,
    "food_beverage": true,
    "wheelchair_accessible": true,
    "kids_programs": true,
    "price_per_hour_cents": 4000,
    "price_peak_cents": 5000,
    "membership_available": false,
    "is_featured": false
  },
  {
    "name": "Orlando Padel Club",
    "address": "608 E Landstreet Rd",
    "city": "Orlando",
    "state": "Florida",
    "state_abbr": "FL",
    "zip_code": "32824",
    "latitude": 28.4810,
    "longitude": -81.3792,
    "phone": "(407) 271-3285",
    "website": "https://padelorlando.com",
    "total_courts": 3,
    "indoor_court_count": 2,
    "outdoor_court_count": 1,
    "surface_type": "artificial turf",
    "description": "Orlando's only indoor padel club with two indoor and one outdoor court, offering lessons and open play for all skill levels.",
    "indoor_courts": true,
    "outdoor_courts": true,
    "panoramic_glass": true,
    "led_lighting": true,
    "pro_shop": false,
    "equipment_rental": true,
    "coaching": true,
    "tournaments": true,
    "leagues": false,
    "open_play": true,
    "locker_rooms": false,
    "parking": true,
    "food_beverage": false,
    "wheelchair_accessible": false,
    "kids_programs": false,
    "price_per_hour_cents": 4000,
    "price_peak_cents": 5000,
    "membership_available": false,
    "is_featured": false
  },
  {
    "name": "SODO Padel",
    "address": "3180 Southgate Commerce Blvd",
    "city": "Orlando",
    "state": "Florida",
    "state_abbr": "FL",
    "zip_code": "32806",
    "latitude": 28.5052,
    "longitude": -81.3815,
    "phone": "(407) 867-8182",
    "website": "https://www.sodopadel.com",
    "total_courts": 3,
    "indoor_court_count": 0,
    "outdoor_court_count": 3,
    "surface_type": "artificial turf",
    "description": "Three state-of-the-art outdoor padel courts in Orlando's SODO district with private lessons, tournament hosting, and Playtomic booking.",
    "indoor_courts": false,
    "outdoor_courts": true,
    "panoramic_glass": true,
    "led_lighting": true,
    "pro_shop": false,
    "equipment_rental": true,
    "coaching": true,
    "tournaments": true,
    "leagues": false,
    "open_play": true,
    "locker_rooms": false,
    "parking": true,
    "food_beverage": false,
    "wheelchair_accessible": false,
    "kids_programs": false,
    "price_per_hour_cents": 5900,
    "price_peak_cents": 5900,
    "membership_available": false,
    "is_featured": false
  },
  {
    "name": "SVB Tennis & Wellness Center",
    "address": "6585 Simons Rd",
    "city": "Zephyrhills",
    "state": "Florida",
    "state_abbr": "FL",
    "zip_code": "33541",
    "latitude": 28.2273,
    "longitude": -82.1645,
    "phone": "(813) 361-6660",
    "website": "https://www.svbtenniscenter.com/padel",
    "total_courts": 5,
    "indoor_court_count": 0,
    "outdoor_court_count": 5,
    "surface_type": "artificial turf",
    "description": "Boutique padel club with 5 lighted courts near Tampa, plus 11 tennis courts, cryotherapy, salt room, and on-site restaurant.",
    "indoor_courts": false,
    "outdoor_courts": true,
    "panoramic_glass": true,
    "led_lighting": true,
    "pro_shop": true,
    "equipment_rental": true,
    "coaching": true,
    "tournaments": true,
    "leagues": true,
    "open_play": true,
    "locker_rooms": true,
    "parking": true,
    "food_beverage": true,
    "wheelchair_accessible": true,
    "kids_programs": true,
    "price_per_hour_cents": 3500,
    "price_peak_cents": 5000,
    "membership_available": true,
    "is_featured": false
  },
  {
    "name": "St. Pete Athletic Paddle & Social",
    "address": "680 28th St S",
    "city": "St. Petersburg",
    "state": "Florida",
    "state_abbr": "FL",
    "zip_code": "33712",
    "latitude": 27.7558,
    "longitude": -82.6645,
    "phone": null,
    "website": "https://www.stpeteathletic.com",
    "total_courts": 2,
    "indoor_court_count": 2,
    "outdoor_court_count": 0,
    "surface_type": "artificial turf",
    "description": "Tampa Bay's premier paddle and social club at The Factory with 2 indoor padel courts, 14 pickleball courts, restaurant, bars, and coworking space.",
    "indoor_courts": true,
    "outdoor_courts": false,
    "panoramic_glass": true,
    "led_lighting": true,
    "pro_shop": false,
    "equipment_rental": true,
    "coaching": true,
    "tournaments": true,
    "leagues": true,
    "open_play": true,
    "locker_rooms": true,
    "parking": true,
    "food_beverage": true,
    "wheelchair_accessible": true,
    "kids_programs": false,
    "price_per_hour_cents": 4000,
    "price_peak_cents": 5000,
    "membership_available": true,
    "is_featured": false
  },
  {
    "name": "Padel39 Austin",
    "address": "2510 Rutland Dr",
    "city": "Austin",
    "state": "Texas",
    "state_abbr": "TX",
    "zip_code": "78758",
    "latitude": 30.3730,
    "longitude": -97.7076,
    "phone": "(512) 220-6296",
    "website": "https://www.padel39.com",
    "total_courts": 6,
    "indoor_court_count": 0,
    "outdoor_court_count": 6,
    "surface_type": "artificial turf",
    "description": "Premium padel club near The Domain and Q2 Stadium with 6 courts, an 8,000 sq ft clubhouse, recovery area, bar, and co-working space.",
    "indoor_courts": false,
    "outdoor_courts": true,
    "panoramic_glass": true,
    "led_lighting": true,
    "pro_shop": true,
    "equipment_rental": true,
    "coaching": true,
    "tournaments": true,
    "leagues": true,
    "open_play": true,
    "locker_rooms": true,
    "parking": true,
    "food_beverage": true,
    "wheelchair_accessible": true,
    "kids_programs": false,
    "price_per_hour_cents": 4000,
    "price_peak_cents": 6000,
    "membership_available": true,
    "is_featured": true
  },
  {
    "name": "Dallas Padel Club by Padel39",
    "address": "3000 Belmeade Dr",
    "city": "Carrollton",
    "state": "Texas",
    "state_abbr": "TX",
    "zip_code": "75006",
    "latitude": 32.9723,
    "longitude": -96.8900,
    "phone": "(945) 994-5158",
    "website": "https://www.padel39.com/locations/dallas",
    "total_courts": 3,
    "indoor_court_count": 3,
    "outdoor_court_count": 0,
    "surface_type": "artificial turf",
    "description": "Indoor padel club in the Dallas-Fort Worth area with 3 courts, undergoing major renovation to add 7 outdoor courts and premium amenities by 2026.",
    "indoor_courts": true,
    "outdoor_courts": false,
    "panoramic_glass": true,
    "led_lighting": true,
    "pro_shop": false,
    "equipment_rental": true,
    "coaching": true,
    "tournaments": true,
    "leagues": true,
    "open_play": true,
    "locker_rooms": true,
    "parking": true,
    "food_beverage": true,
    "wheelchair_accessible": false,
    "kids_programs": false,
    "price_per_hour_cents": 4000,
    "price_peak_cents": 6000,
    "membership_available": true,
    "is_featured": false
  },
  {
    "name": "Los Angeles Padel Club",
    "address": "3801 Lenawee Ave",
    "city": "Los Angeles",
    "state": "California",
    "state_abbr": "CA",
    "zip_code": "90232",
    "latitude": 34.0158,
    "longitude": -118.3884,
    "phone": null,
    "website": "https://www.thelapc.com",
    "total_courts": 7,
    "indoor_court_count": 0,
    "outdoor_court_count": 7,
    "surface_type": "artificial turf",
    "description": "LA's largest padel club with seven outdoor courts, coworking space, wellness amenities, members' lounge, gym, and free parking.",
    "indoor_courts": false,
    "outdoor_courts": true,
    "panoramic_glass": true,
    "led_lighting": true,
    "pro_shop": true,
    "equipment_rental": true,
    "coaching": true,
    "tournaments": true,
    "leagues": true,
    "open_play": true,
    "locker_rooms": true,
    "parking": true,
    "food_beverage": true,
    "wheelchair_accessible": true,
    "kids_programs": false,
    "price_per_hour_cents": 5000,
    "price_peak_cents": 8000,
    "membership_available": true,
    "is_featured": true
  },
  {
    "name": "The Padel Courts Los Angeles",
    "address": "5115 W Sunset Blvd",
    "city": "Los Angeles",
    "state": "California",
    "state_abbr": "CA",
    "zip_code": "90027",
    "latitude": 34.0943,
    "longitude": -118.3074,
    "phone": "(510) 770-6138",
    "website": "https://thepadelcourts.com",
    "total_courts": 3,
    "indoor_court_count": 0,
    "outdoor_court_count": 3,
    "surface_type": "artificial turf",
    "description": "Community-focused padel club on Sunset Blvd with two full-sized and one mini court, LED floodlighting, clinics, and open play sessions.",
    "indoor_courts": false,
    "outdoor_courts": true,
    "panoramic_glass": true,
    "led_lighting": true,
    "pro_shop": false,
    "equipment_rental": true,
    "coaching": true,
    "tournaments": true,
    "leagues": false,
    "open_play": true,
    "locker_rooms": false,
    "parking": true,
    "food_beverage": false,
    "wheelchair_accessible": false,
    "kids_programs": false,
    "price_per_hour_cents": 10000,
    "price_peak_cents": 10000,
    "membership_available": false,
    "is_featured": false
  },
  {
    "name": "LA Galaxy Park Padel",
    "address": "18400 Avalon Blvd",
    "city": "Carson",
    "state": "California",
    "state_abbr": "CA",
    "zip_code": "90746",
    "latitude": 33.8644,
    "longitude": -118.2611,
    "phone": null,
    "website": "https://lagalaxypark.com/padel-court/",
    "total_courts": 4,
    "indoor_court_count": 0,
    "outdoor_court_count": 4,
    "surface_type": "artificial turf",
    "description": "Padel courts at the LA Galaxy sports complex at Dignity Health Sports Park, alongside futsal, soccer, and pickleball facilities.",
    "indoor_courts": false,
    "outdoor_courts": true,
    "panoramic_glass": true,
    "led_lighting": true,
    "pro_shop": false,
    "equipment_rental": true,
    "coaching": true,
    "tournaments": false,
    "leagues": false,
    "open_play": true,
    "locker_rooms": true,
    "parking": true,
    "food_beverage": true,
    "wheelchair_accessible": true,
    "kids_programs": false,
    "price_per_hour_cents": 4000,
    "price_peak_cents": 6000,
    "membership_available": false,
    "is_featured": false
  },
  {
    "name": "Padel N9NE",
    "address": "9955 Barnes Canyon Rd",
    "city": "San Diego",
    "state": "California",
    "state_abbr": "CA",
    "zip_code": "92121",
    "latitude": 32.8856,
    "longitude": -117.2099,
    "phone": null,
    "website": "https://www.padeln9ne.com",
    "total_courts": 8,
    "indoor_court_count": 0,
    "outdoor_court_count": 8,
    "surface_type": "artificial turf",
    "description": "The first adidas padel flagship facility in the U.S. with 8 competition-level panoramic courts, gym and wellness facilities, plus five on-site restaurants.",
    "indoor_courts": false,
    "outdoor_courts": true,
    "panoramic_glass": true,
    "led_lighting": true,
    "pro_shop": true,
    "equipment_rental": true,
    "coaching": true,
    "tournaments": true,
    "leagues": true,
    "open_play": true,
    "locker_rooms": true,
    "parking": true,
    "food_beverage": true,
    "wheelchair_accessible": true,
    "kids_programs": false,
    "price_per_hour_cents": 5000,
    "price_peak_cents": 8000,
    "membership_available": true,
    "is_featured": true
  },
  {
    "name": "Kingdom of Padel",
    "address": "4645 Morena Blvd",
    "city": "San Diego",
    "state": "California",
    "state_abbr": "CA",
    "zip_code": "92117",
    "latitude": 32.8067,
    "longitude": -117.2085,
    "phone": "(619) 663-2869",
    "website": "https://kingdomofpadel.com",
    "total_courts": 6,
    "indoor_court_count": 6,
    "outdoor_court_count": 0,
    "surface_type": "artificial turf",
    "description": "San Diego's only indoor padel facility in a converted Harley-Davidson warehouse with 6 climate-controlled courts, golf simulators, and a beer and wine bar.",
    "indoor_courts": true,
    "outdoor_courts": false,
    "panoramic_glass": true,
    "led_lighting": true,
    "pro_shop": false,
    "equipment_rental": true,
    "coaching": true,
    "tournaments": true,
    "leagues": true,
    "open_play": true,
    "locker_rooms": true,
    "parking": true,
    "food_beverage": true,
    "wheelchair_accessible": true,
    "kids_programs": false,
    "price_per_hour_cents": 4000,
    "price_peak_cents": 6000,
    "membership_available": true,
    "is_featured": false
  },
  {
    "name": "Barnes Tennis Center Padel",
    "address": "4490 W Point Loma Blvd",
    "city": "San Diego",
    "state": "California",
    "state_abbr": "CA",
    "zip_code": "92107",
    "latitude": 32.7462,
    "longitude": -117.2214,
    "phone": "(619) 221-9000",
    "website": "https://www.barnestenniscenter.com/padel",
    "total_courts": 7,
    "indoor_court_count": 0,
    "outdoor_court_count": 7,
    "surface_type": "artificial turf",
    "description": "San Diego's first tennis center to add padel with 7 carbon panoramic courts alongside 25 tennis courts in the Point Loma area.",
    "indoor_courts": false,
    "outdoor_courts": true,
    "panoramic_glass": true,
    "led_lighting": true,
    "pro_shop": true,
    "equipment_rental": true,
    "coaching": true,
    "tournaments": true,
    "leagues": true,
    "open_play": true,
    "locker_rooms": true,
    "parking": true,
    "food_beverage": false,
    "wheelchair_accessible": true,
    "kids_programs": true,
    "price_per_hour_cents": 3500,
    "price_peak_cents": 5000,
    "membership_available": true,
    "is_featured": false
  },
  {
    "name": "P1 Padel Las Vegas",
    "address": "1876 S Buffalo Dr",
    "city": "Las Vegas",
    "state": "Nevada",
    "state_abbr": "NV",
    "zip_code": "89117",
    "latitude": 36.1449,
    "longitude": -115.2563,
    "phone": "(702) 575-1700",
    "website": "https://p1padel.com",
    "total_courts": 8,
    "indoor_court_count": 0,
    "outdoor_court_count": 8,
    "surface_type": "artificial turf",
    "description": "Las Vegas's premier padel club with 8 state-of-the-art courts, a stylish clubhouse, coaching programs, and 48 free parking spaces.",
    "indoor_courts": false,
    "outdoor_courts": true,
    "panoramic_glass": true,
    "led_lighting": true,
    "pro_shop": true,
    "equipment_rental": true,
    "coaching": true,
    "tournaments": true,
    "leagues": true,
    "open_play": true,
    "locker_rooms": true,
    "parking": true,
    "food_beverage": true,
    "wheelchair_accessible": true,
    "kids_programs": false,
    "price_per_hour_cents": 4000,
    "price_peak_cents": 6000,
    "membership_available": true,
    "is_featured": false
  },
  {
    "name": "Conquer Padel Club",
    "address": "7760 S Priest Ave, Ste 108",
    "city": "Tempe",
    "state": "Arizona",
    "state_abbr": "AZ",
    "zip_code": "85284",
    "latitude": 33.3598,
    "longitude": -111.9502,
    "phone": "(520) 646-0886",
    "website": "https://conquerpadel.com",
    "total_courts": 7,
    "indoor_court_count": 7,
    "outdoor_court_count": 0,
    "surface_type": "artificial turf",
    "description": "Indoor padel club in south Tempe with 7 courts featuring 30-foot ceilings, cold plunge, infrared sauna, red light therapy, and top-level coaching.",
    "indoor_courts": true,
    "outdoor_courts": false,
    "panoramic_glass": true,
    "led_lighting": true,
    "pro_shop": false,
    "equipment_rental": true,
    "coaching": true,
    "tournaments": true,
    "leagues": true,
    "open_play": true,
    "locker_rooms": true,
    "parking": true,
    "food_beverage": false,
    "wheelchair_accessible": true,
    "kids_programs": false,
    "price_per_hour_cents": 4000,
    "price_peak_cents": 6000,
    "membership_available": true,
    "is_featured": false
  },
  {
    "name": "Padel Pals",
    "address": "4945 S 71st St",
    "city": "Mesa",
    "state": "Arizona",
    "state_abbr": "AZ",
    "zip_code": "85212",
    "latitude": 33.3791,
    "longitude": -111.7310,
    "phone": "(480) 318-3219",
    "website": "https://padel-pals.com",
    "total_courts": 7,
    "indoor_court_count": 7,
    "outdoor_court_count": 0,
    "surface_type": "artificial turf",
    "description": "Arizona's first fully indoor padel club with 7 professional courts across 42,000 sq ft, coworking spaces, kids' playground, and player lounge.",
    "indoor_courts": true,
    "outdoor_courts": false,
    "panoramic_glass": true,
    "led_lighting": true,
    "pro_shop": true,
    "equipment_rental": true,
    "coaching": true,
    "tournaments": true,
    "leagues": true,
    "open_play": true,
    "locker_rooms": false,
    "parking": true,
    "food_beverage": true,
    "wheelchair_accessible": true,
    "kids_programs": true,
    "price_per_hour_cents": 3500,
    "price_peak_cents": 5000,
    "membership_available": false,
    "is_featured": false
  },
  {
    "name": "Camelback Padel Club",
    "address": "4040 E Camelback Rd, Unit 212",
    "city": "Phoenix",
    "state": "Arizona",
    "state_abbr": "AZ",
    "zip_code": "85018",
    "latitude": 33.5093,
    "longitude": -111.9786,
    "phone": "(480) 606-2300",
    "website": "https://camelbackpadelclub.com",
    "total_courts": 1,
    "indoor_court_count": 0,
    "outdoor_court_count": 1,
    "surface_type": "artificial turf",
    "description": "Private, lighted padel court at the base of Camelback Mountain in Phoenix with on-site lessons, coaching, and equipment available.",
    "indoor_courts": false,
    "outdoor_courts": true,
    "panoramic_glass": true,
    "led_lighting": true,
    "pro_shop": false,
    "equipment_rental": true,
    "coaching": true,
    "tournaments": false,
    "leagues": false,
    "open_play": false,
    "locker_rooms": false,
    "parking": true,
    "food_beverage": false,
    "wheelchair_accessible": true,
    "kids_programs": false,
    "price_per_hour_cents": 5000,
    "price_peak_cents": 5000,
    "membership_available": false,
    "is_featured": false
  },
  {
    "name": "Union Padel Club",
    "address": "219 N Paulina St",
    "city": "Chicago",
    "state": "Illinois",
    "state_abbr": "IL",
    "zip_code": "60612",
    "latitude": 41.8853,
    "longitude": -87.6693,
    "phone": "(312) 856-2600",
    "website": "https://www.unionpadelclub.com",
    "total_courts": 5,
    "indoor_court_count": 5,
    "outdoor_court_count": 0,
    "surface_type": "artificial turf",
    "description": "30,000 sq ft indoor padel club in Chicago's West Loop with 5 courts, sauna, cold plunge, game room, coworking space, and restaurant bar.",
    "indoor_courts": true,
    "outdoor_courts": false,
    "panoramic_glass": true,
    "led_lighting": true,
    "pro_shop": true,
    "equipment_rental": true,
    "coaching": true,
    "tournaments": true,
    "leagues": true,
    "open_play": true,
    "locker_rooms": true,
    "parking": false,
    "food_beverage": true,
    "wheelchair_accessible": true,
    "kids_programs": false,
    "price_per_hour_cents": 3500,
    "price_peak_cents": 5000,
    "membership_available": true,
    "is_featured": false
  },
  {
    "name": "Padel Clube",
    "address": "939 Tower Rd",
    "city": "Mundelein",
    "state": "Illinois",
    "state_abbr": "IL",
    "zip_code": "60060",
    "latitude": 42.2595,
    "longitude": -88.0047,
    "phone": "(224) 864-4109",
    "website": "https://www.padelclube.com",
    "total_courts": 7,
    "indoor_court_count": 6,
    "outdoor_court_count": 1,
    "surface_type": "artificial turf",
    "description": "Illinois's first padel facility in Mundelein with 7 courts, personal training, recovery area, pro shop, and a welcoming community focus.",
    "indoor_courts": true,
    "outdoor_courts": true,
    "panoramic_glass": true,
    "led_lighting": true,
    "pro_shop": true,
    "equipment_rental": true,
    "coaching": true,
    "tournaments": true,
    "leagues": true,
    "open_play": true,
    "locker_rooms": false,
    "parking": true,
    "food_beverage": false,
    "wheelchair_accessible": true,
    "kids_programs": false,
    "price_per_hour_cents": 3500,
    "price_peak_cents": 5000,
    "membership_available": true,
    "is_featured": false
  },
  {
    "name": "Alma Padel",
    "address": "2300 Ridge Dr",
    "city": "Glenview",
    "state": "Illinois",
    "state_abbr": "IL",
    "zip_code": "60025",
    "latitude": 42.0698,
    "longitude": -87.8025,
    "phone": "(847) 404-9492",
    "website": "https://www.almapadel.com",
    "total_courts": 5,
    "indoor_court_count": 5,
    "outdoor_court_count": 0,
    "surface_type": "artificial turf",
    "description": "Chicago's North Shore first padel club with 5 courts, 30-foot ceilings, golf simulator, saunas, fitness area, bar, and cafe in Glenview.",
    "indoor_courts": true,
    "outdoor_courts": false,
    "panoramic_glass": true,
    "led_lighting": true,
    "pro_shop": false,
    "equipment_rental": true,
    "coaching": true,
    "tournaments": true,
    "leagues": true,
    "open_play": true,
    "locker_rooms": true,
    "parking": true,
    "food_beverage": true,
    "wheelchair_accessible": true,
    "kids_programs": false,
    "price_per_hour_cents": 5000,
    "price_peak_cents": 7000,
    "membership_available": true,
    "is_featured": false
  },
  {
    "name": "ITP Training Academy",
    "address": "3110 Presidential Dr",
    "city": "Atlanta",
    "state": "Georgia",
    "state_abbr": "GA",
    "zip_code": "30340",
    "latitude": 33.8818,
    "longitude": -84.2832,
    "phone": "(470) 421-2402",
    "website": "https://itpta.com",
    "total_courts": 4,
    "indoor_court_count": 4,
    "outdoor_court_count": 0,
    "surface_type": "artificial turf",
    "description": "Full-service tennis, pickleball, and padel facility in Metro Atlanta with 4 indoor padel courts, viewing deck, kitchen and bar with court views.",
    "indoor_courts": true,
    "outdoor_courts": false,
    "panoramic_glass": true,
    "led_lighting": true,
    "pro_shop": false,
    "equipment_rental": true,
    "coaching": true,
    "tournaments": true,
    "leagues": true,
    "open_play": true,
    "locker_rooms": true,
    "parking": true,
    "food_beverage": true,
    "wheelchair_accessible": true,
    "kids_programs": false,
    "price_per_hour_cents": 3500,
    "price_peak_cents": 5000,
    "membership_available": true,
    "is_featured": false
  },
  {
    "name": "Racket Social Club Alpharetta",
    "address": "2001 Lake Windward Dr",
    "city": "Alpharetta",
    "state": "Georgia",
    "state_abbr": "GA",
    "zip_code": "30005",
    "latitude": 34.0862,
    "longitude": -84.2252,
    "phone": "(336) 402-7275",
    "website": "https://www.racketsocialclub.us/alpharetta",
    "total_courts": 4,
    "indoor_court_count": 0,
    "outdoor_court_count": 4,
    "surface_type": "artificial turf",
    "description": "Premier racquet club north of Atlanta with 4 padel courts, 18 tennis courts, resort-style pools, full-service marina, and multiple membership tiers.",
    "indoor_courts": false,
    "outdoor_courts": true,
    "panoramic_glass": true,
    "led_lighting": true,
    "pro_shop": true,
    "equipment_rental": true,
    "coaching": true,
    "tournaments": true,
    "leagues": true,
    "open_play": true,
    "locker_rooms": true,
    "parking": true,
    "food_beverage": true,
    "wheelchair_accessible": true,
    "kids_programs": true,
    "price_per_hour_cents": 4000,
    "price_peak_cents": 6000,
    "membership_available": true,
    "is_featured": false
  },
  {
    "name": "Parker Racquet Club",
    "address": "18396 Plaza Dr",
    "city": "Parker",
    "state": "Colorado",
    "state_abbr": "CO",
    "zip_code": "80134",
    "latitude": 39.5145,
    "longitude": -104.7741,
    "phone": null,
    "website": "https://www.parkerracquetclub.com/padel",
    "total_courts": 4,
    "indoor_court_count": 0,
    "outdoor_court_count": 4,
    "surface_type": "artificial turf",
    "description": "Colorado's first padel courts with 4 outdoor courts, certified USPA coaching, and a welcoming center with lounge and outdoor patio for events.",
    "indoor_courts": false,
    "outdoor_courts": true,
    "panoramic_glass": true,
    "led_lighting": true,
    "pro_shop": true,
    "equipment_rental": true,
    "coaching": true,
    "tournaments": true,
    "leagues": true,
    "open_play": true,
    "locker_rooms": true,
    "parking": true,
    "food_beverage": false,
    "wheelchair_accessible": true,
    "kids_programs": false,
    "price_per_hour_cents": 2400,
    "price_peak_cents": 4000,
    "membership_available": true,
    "is_featured": false
  },
  {
    "name": "PADELHUB Boston",
    "address": "653 Summer St",
    "city": "Boston",
    "state": "Massachusetts",
    "state_abbr": "MA",
    "zip_code": "02210",
    "latitude": 42.3411,
    "longitude": -71.0438,
    "phone": "(857) 413-6949",
    "website": "https://www.padelhubusa.com",
    "total_courts": 6,
    "indoor_court_count": 6,
    "outdoor_court_count": 0,
    "surface_type": "artificial turf",
    "description": "New England's largest padel facility in South Boston's Seaport with 6 indoor courts, 35+ ft ceilings, adidas pro-shop, lounge, and 45 free parking spots.",
    "indoor_courts": true,
    "outdoor_courts": false,
    "panoramic_glass": true,
    "led_lighting": true,
    "pro_shop": true,
    "equipment_rental": true,
    "coaching": true,
    "tournaments": true,
    "leagues": true,
    "open_play": true,
    "locker_rooms": true,
    "parking": true,
    "food_beverage": true,
    "wheelchair_accessible": true,
    "kids_programs": false,
    "price_per_hour_cents": 5000,
    "price_peak_cents": 7500,
    "membership_available": true,
    "is_featured": true
  },
  {
    "name": "Sensa Padel Boston",
    "address": "1 Westinghouse Plaza, Building G",
    "city": "Boston",
    "state": "Massachusetts",
    "state_abbr": "MA",
    "zip_code": "02136",
    "latitude": 42.2498,
    "longitude": -71.1247,
    "phone": null,
    "website": "https://sensapadel.com",
    "total_courts": 4,
    "indoor_court_count": 4,
    "outdoor_court_count": 0,
    "surface_type": "artificial turf",
    "description": "Boston's first padel facility in Hyde Park with 4 indoor courts boasting the country's tallest 40+ foot ceilings, open 7am to 11pm daily.",
    "indoor_courts": true,
    "outdoor_courts": false,
    "panoramic_glass": true,
    "led_lighting": true,
    "pro_shop": false,
    "equipment_rental": true,
    "coaching": true,
    "tournaments": true,
    "leagues": true,
    "open_play": true,
    "locker_rooms": false,
    "parking": true,
    "food_beverage": false,
    "wheelchair_accessible": false,
    "kids_programs": false,
    "price_per_hour_cents": 4000,
    "price_peak_cents": 6000,
    "membership_available": true,
    "is_featured": false
  },
  {
    "name": "Padel Boston Dedham",
    "address": "220 Rustcraft Rd",
    "city": "Dedham",
    "state": "Massachusetts",
    "state_abbr": "MA",
    "zip_code": "02026",
    "latitude": 42.2268,
    "longitude": -71.1659,
    "phone": "(781) 471-7019",
    "website": "https://www.playpadelboston.com",
    "total_courts": 3,
    "indoor_court_count": 3,
    "outdoor_court_count": 0,
    "surface_type": "artificial turf",
    "description": "Massachusetts' first dedicated padel facility with 3 panoramic indoor Portico Sport courts, 25+ ft ceilings, cafe, and expert coaching.",
    "indoor_courts": true,
    "outdoor_courts": false,
    "panoramic_glass": true,
    "led_lighting": true,
    "pro_shop": false,
    "equipment_rental": true,
    "coaching": true,
    "tournaments": true,
    "leagues": true,
    "open_play": true,
    "locker_rooms": true,
    "parking": true,
    "food_beverage": true,
    "wheelchair_accessible": false,
    "kids_programs": false,
    "price_per_hour_cents": 4000,
    "price_peak_cents": 6000,
    "membership_available": true,
    "is_featured": false
  },
  {
    "name": "Ballers Boston Seaport",
    "address": "25 Pier 4 Blvd",
    "city": "Boston",
    "state": "Massachusetts",
    "state_abbr": "MA",
    "zip_code": "02210",
    "latitude": 42.3494,
    "longitude": -71.0426,
    "phone": null,
    "website": "https://www.ballers-us.com/location/bostonseaport",
    "total_courts": 3,
    "indoor_court_count": 0,
    "outdoor_court_count": 3,
    "surface_type": "artificial turf",
    "description": "Social sports concept in Boston's Seaport with 3 padel courts, 5 pickleball courts, a golf simulator, and a full-service outdoor cafe.",
    "indoor_courts": false,
    "outdoor_courts": true,
    "panoramic_glass": true,
    "led_lighting": true,
    "pro_shop": false,
    "equipment_rental": true,
    "coaching": true,
    "tournaments": false,
    "leagues": false,
    "open_play": true,
    "locker_rooms": false,
    "parking": false,
    "food_beverage": true,
    "wheelchair_accessible": true,
    "kids_programs": false,
    "price_per_hour_cents": 2500,
    "price_peak_cents": 4000,
    "membership_available": false,
    "is_featured": false
  },
  {
    "name": "Padel United Sports Club",
    "address": "160 Broadway",
    "city": "Cresskill",
    "state": "New Jersey",
    "state_abbr": "NJ",
    "zip_code": "07626",
    "latitude": 40.9401,
    "longitude": -73.9593,
    "phone": "(201) 328-0006",
    "website": "https://www.padelunitedsportsclub.com",
    "total_courts": 7,
    "indoor_court_count": 7,
    "outdoor_court_count": 0,
    "surface_type": "artificial turf",
    "description": "The largest padel club in the Northeast, housed in a 36,000 sq ft converted warehouse in Cresskill with 7 indoor courts, cafe, retail shop, pool, and spa.",
    "indoor_courts": true,
    "outdoor_courts": false,
    "panoramic_glass": true,
    "led_lighting": true,
    "pro_shop": true,
    "equipment_rental": true,
    "coaching": true,
    "tournaments": true,
    "leagues": true,
    "open_play": true,
    "locker_rooms": true,
    "parking": true,
    "food_beverage": true,
    "wheelchair_accessible": true,
    "kids_programs": false,
    "price_per_hour_cents": 5000,
    "price_peak_cents": 7000,
    "membership_available": true,
    "is_featured": false
  },
  {
    "name": "Centercourt Padel Morristown",
    "address": "65 Columbia Rd",
    "city": "Morristown",
    "state": "New Jersey",
    "state_abbr": "NJ",
    "zip_code": "07960",
    "latitude": 40.7849,
    "longitude": -74.4887,
    "phone": "(862) 435-3031",
    "website": "https://centercourtacademy.com/sports/padel/",
    "total_courts": 6,
    "indoor_court_count": 3,
    "outdoor_court_count": 3,
    "surface_type": "artificial turf",
    "description": "Premium padel facility in Morristown with 3 indoor and 3 outdoor courts, expert coaching, a lounge, and pro shop for year-round play.",
    "indoor_courts": true,
    "outdoor_courts": true,
    "panoramic_glass": true,
    "led_lighting": true,
    "pro_shop": true,
    "equipment_rental": true,
    "coaching": true,
    "tournaments": true,
    "leagues": true,
    "open_play": true,
    "locker_rooms": true,
    "parking": true,
    "food_beverage": false,
    "wheelchair_accessible": true,
    "kids_programs": false,
    "price_per_hour_cents": 4000,
    "price_peak_cents": 6000,
    "membership_available": true,
    "is_featured": false
  },
  {
    "name": "The Club at Monroe",
    "address": "4 Farrington Blvd",
    "city": "Monroe Township",
    "state": "New Jersey",
    "state_abbr": "NJ",
    "zip_code": "08831",
    "latitude": 40.3280,
    "longitude": -74.4340,
    "phone": "(732) 400-1755",
    "website": "https://theclubnj.com",
    "total_courts": 4,
    "indoor_court_count": 4,
    "outdoor_court_count": 0,
    "surface_type": "artificial turf",
    "description": "Multi-sport facility in Monroe Township with 4 climate-controlled padel courts, pickleball, golf simulators, coaching, and mixed-doubles leagues.",
    "indoor_courts": true,
    "outdoor_courts": false,
    "panoramic_glass": true,
    "led_lighting": true,
    "pro_shop": false,
    "equipment_rental": true,
    "coaching": true,
    "tournaments": true,
    "leagues": true,
    "open_play": true,
    "locker_rooms": true,
    "parking": true,
    "food_beverage": false,
    "wheelchair_accessible": true,
    "kids_programs": false,
    "price_per_hour_cents": 4000,
    "price_peak_cents": 6000,
    "membership_available": true,
    "is_featured": false
  },
  {
    "name": "And Padel",
    "address": "17 Van Vooren Dr",
    "city": "Oakland",
    "state": "New Jersey",
    "state_abbr": "NJ",
    "zip_code": "07436",
    "latitude": 41.0194,
    "longitude": -74.2384,
    "phone": "(201) 644-0322",
    "website": "https://andpadel.com",
    "total_courts": 3,
    "indoor_court_count": 3,
    "outdoor_court_count": 0,
    "surface_type": "artificial turf",
    "description": "Indoor padel club in Oakland, NJ with 3 championship courts under 40-foot ceilings, led by former U.S. national squash team coach.",
    "indoor_courts": true,
    "outdoor_courts": false,
    "panoramic_glass": true,
    "led_lighting": true,
    "pro_shop": false,
    "equipment_rental": true,
    "coaching": true,
    "tournaments": true,
    "leagues": true,
    "open_play": true,
    "locker_rooms": false,
    "parking": true,
    "food_beverage": false,
    "wheelchair_accessible": false,
    "kids_programs": false,
    "price_per_hour_cents": 4000,
    "price_peak_cents": 6000,
    "membership_available": true,
    "is_featured": false
  },
  {
    "name": "The Sports Haus",
    "address": "129 Woodward Ave",
    "city": "Norwalk",
    "state": "Connecticut",
    "state_abbr": "CT",
    "zip_code": "06854",
    "latitude": 41.0877,
    "longitude": -73.4206,
    "phone": "(866) 625-8215",
    "website": "https://sports.haus",
    "total_courts": 5,
    "indoor_court_count": 5,
    "outdoor_court_count": 0,
    "surface_type": "artificial turf",
    "description": "35,000 sq ft indoor sports club in South Norwalk with 5 padel courts, 4 pickleball courts, 2 golf simulators, and social spaces.",
    "indoor_courts": true,
    "outdoor_courts": false,
    "panoramic_glass": true,
    "led_lighting": true,
    "pro_shop": false,
    "equipment_rental": true,
    "coaching": true,
    "tournaments": true,
    "leagues": true,
    "open_play": true,
    "locker_rooms": true,
    "parking": true,
    "food_beverage": false,
    "wheelchair_accessible": true,
    "kids_programs": true,
    "price_per_hour_cents": 4500,
    "price_peak_cents": 6500,
    "membership_available": true,
    "is_featured": false
  },
  {
    "name": "Sensa Padel Nashville",
    "address": "1312 Adams St",
    "city": "Nashville",
    "state": "Tennessee",
    "state_abbr": "TN",
    "zip_code": "37208",
    "latitude": 36.1812,
    "longitude": -86.7956,
    "phone": null,
    "website": "https://sensapadel.com/nashville/",
    "total_courts": 6,
    "indoor_court_count": 0,
    "outdoor_court_count": 6,
    "surface_type": "artificial turf",
    "description": "Six outdoor Wilson courts at the iconic Neuhoff development in Germantown, minutes from downtown Nashville, with pro shop, recovery, and social events.",
    "indoor_courts": false,
    "outdoor_courts": true,
    "panoramic_glass": true,
    "led_lighting": true,
    "pro_shop": true,
    "equipment_rental": true,
    "coaching": true,
    "tournaments": true,
    "leagues": true,
    "open_play": true,
    "locker_rooms": false,
    "parking": true,
    "food_beverage": true,
    "wheelchair_accessible": true,
    "kids_programs": true,
    "price_per_hour_cents": 4000,
    "price_peak_cents": 6000,
    "membership_available": true,
    "is_featured": false
  },
  {
    "name": "Padel Social Bethesda",
    "address": "5452 Westbard Ave",
    "city": "Bethesda",
    "state": "Maryland",
    "state_abbr": "MD",
    "zip_code": "20816",
    "latitude": 38.9618,
    "longitude": -77.1005,
    "phone": "(301) 526-6339",
    "website": "https://padelsocial.com",
    "total_courts": 3,
    "indoor_court_count": 0,
    "outdoor_court_count": 3,
    "surface_type": "artificial turf",
    "description": "Community-focused outdoor padel club in the DC metro area with 3 courts, full lighting, lessons, clinics, and social events at Westbard Square.",
    "indoor_courts": false,
    "outdoor_courts": true,
    "panoramic_glass": true,
    "led_lighting": true,
    "pro_shop": false,
    "equipment_rental": true,
    "coaching": true,
    "tournaments": true,
    "leagues": false,
    "open_play": true,
    "locker_rooms": false,
    "parking": true,
    "food_beverage": false,
    "wheelchair_accessible": true,
    "kids_programs": false,
    "price_per_hour_cents": 2000,
    "price_peak_cents": 2000,
    "membership_available": true,
    "is_featured": false
  },
  {
    "name": "SLC Padel Club",
    "address": "2269 S 1200th W, Ste 105",
    "city": "Woods Cross",
    "state": "Utah",
    "state_abbr": "UT",
    "zip_code": "84087",
    "latitude": 40.8685,
    "longitude": -111.9096,
    "phone": "(321) 429-7473",
    "website": "https://www.slcpadelclub.com",
    "total_courts": 4,
    "indoor_court_count": 4,
    "outdoor_court_count": 0,
    "surface_type": "artificial turf",
    "description": "Utah's first dedicated indoor padel facility near Salt Lake City with 4 premium courts, expert coaching, demo racquet rentals, and year-round events.",
    "indoor_courts": true,
    "outdoor_courts": false,
    "panoramic_glass": true,
    "led_lighting": true,
    "pro_shop": false,
    "equipment_rental": true,
    "coaching": true,
    "tournaments": true,
    "leagues": true,
    "open_play": true,
    "locker_rooms": false,
    "parking": true,
    "food_beverage": false,
    "wheelchair_accessible": true,
    "kids_programs": false,
    "price_per_hour_cents": 3500,
    "price_peak_cents": 5000,
    "membership_available": true,
    "is_featured": false
  },
  {
    "name": "Kinetic Indoor Racquet Club",
    "address": "1210 SW 35th Ave, Suite B",
    "city": "Boynton Beach",
    "state": "Florida",
    "state_abbr": "FL",
    "zip_code": "33426",
    "latitude": 26.5262,
    "longitude": -80.0986,
    "phone": "(561) 375-0911",
    "website": "https://kineticracquet.com",
    "total_courts": 1,
    "indoor_court_count": 1,
    "outdoor_court_count": 0,
    "surface_type": "artificial turf",
    "description": "Indoor racquet club in Boynton Beach with a padel court alongside squash courts, fitness area, pro shop, and professional physiotherapy.",
    "indoor_courts": true,
    "outdoor_courts": false,
    "panoramic_glass": true,
    "led_lighting": true,
    "pro_shop": true,
    "equipment_rental": true,
    "coaching": true,
    "tournaments": true,
    "leagues": true,
    "open_play": true,
    "locker_rooms": true,
    "parking": true,
    "food_beverage": false,
    "wheelchair_accessible": false,
    "kids_programs": false,
    "price_per_hour_cents": 4000,
    "price_peak_cents": 5000,
    "membership_available": true,
    "is_featured": false
  }
]
